{"type": "FeatureCollection", "features": [{"type":"Feature","geometry":{"type":"Point","coordinates":[-79.042275,43.848062]},"properties":{"cartodb_id":1,"objectid_1":1,"countofdoc":0,"fac_id":"AJGO","opendate":"December 1988","globalid":"{F26FD388-EF68-4D8D-B7E8-3EB4A55F5B64}","name_short":"AJAX","name_long":"AJAX  STATION","status":"Existing","subdivisio":"GO","line":"Lakeshore East","longitude":-79.043297,"latitude":43.8479,"mileage":3.5}},{"type":"Feature","geometry":{"type":"Point","coordinates":[-78.938213,43.864804]},"properties":{"cartodb_id":2,"objectid_1":2,"countofdoc":0,"fac_id":"WHGO","opendate":"December 1988","globalid":"{66BA2F77-F52D-48ED-9A83-AFED8285FFD7}","name_short":"WHITBY","name_long":"WHITBY  STATION","status":"Existing","subdivisio":"GO","line":"Lakeshore East","longitude":-78.938202,"latitude":43.864899,"mileage":8.9}},{"type":"Feature","geometry":{"type":"Point","coordinates":[-78.886913,43.870114]},"properties":{"cartodb_id":3,"objectid_1":3,"countofdoc":0,"fac_id":"OSGO","opendate":"January 1995","globalid":"{B0CF072E-871E-45DD-8475-36011F4E9F03}","name_short":"OSHAWA","name_long":"OSHAWA  STATION","status":"Existing","subdivisio":"GO","line":"Lakeshore East","longitude":-78.887001,"latitude":43.870201,"mileage":11.6}},{"type":"Feature","geometry":{"type":"Point","coordinates":[-79.0846,43.831614]},"properties":{"cartodb_id":4,"objectid_1":4,"countofdoc":0,"fac_id":"PKGO","opendate":"May 1967","globalid":"{58EA9C92-05CB-4B8E-B153-883F2AAB3EE7}","name_short":"PICKERING","name_long":"PICKERING STATION","status":"Existing","subdivisio":"GO","line":"Lakeshore East","longitude":-79.084701,"latitude":43.8316,"mileage":1}},{"type":"Feature","geometry":{"type":"Point","coordinates":[-79.29905,43.686645]},"properties":{"cartodb_id":5,"objectid_1":5,"countofdoc":0,"fac_id":"DAGO","opendate":"May 1967","globalid":"{1C370C3A-A5B9-40D1-B456-329C6E2839EA}","name_short":"DANFORTH","name_long":"DANFORTH  STATION","status":"Existing","subdivisio":"Kingston","line":"Lakeshore East","longitude":-79.299103,"latitude":43.686699,"mileage":328.6}},{"type":"Feature","geometry":{"type":"Point","coordinates":[-79.254833,43.717256]},"properties":{"cartodb_id":6,"objectid_1":6,"countofdoc":0,"fac_id":"SCGO","opendate":"May 1967","globalid":"{85BA0FDA-EDBB-489A-AA95-764AB5BC81CB}","name_short":"SCARBOROUGH","name_long":"SCARBOROUGH  STATION","status":"Existing","subdivisio":"Kingston","line":"Lakeshore East","longitude":-79.254898,"latitude":43.7173,"mileage":325.27}},{"type":"Feature","geometry":{"type":"Point","coordinates":[-79.230616,43.740408]},"properties":{"cartodb_id":7,"objectid_1":7,"countofdoc":0,"fac_id":"EGGO","opendate":"May 1967","globalid":"{F994D22B-DD26-4300-B02F-D755CD544EA2}","name_short":"EGLINTON","name_long":"EGLINTON  STATION","status":"Existing","subdivisio":"Kingston","line":"Lakeshore East","longitude":-79.232201,"latitude":43.739498,"mileage":323.2}},{"type":"Feature","geometry":{"type":"Point","coordinates":[-79.198087,43.754975]},"properties":{"cartodb_id":8,"objectid_1":8,"countofdoc":0,"fac_id":"GUGO","opendate":"May 1967","globalid":"{69186868-1757-4F92-BBA0-C540A64F1EDC}","name_short":"GUILDWOOD","name_long":"GUILDWOOD  STATION","status":"Existing","subdivisio":"Kingston","line":"Lakeshore East","longitude":-79.198097,"latitude":43.755001,"mileage":321.2}},{"type":"Feature","geometry":{"type":"Point","coordinates":[-79.130663,43.779696]},"properties":{"cartodb_id":9,"objectid_1":9,"countofdoc":0,"fac_id":"ROGO","opendate":"May 1967","globalid":"{D00B13B7-19A4-4EF2-A28C-56D5F0A38283}","name_short":"ROUGE HILL","name_long":"ROUGE HILL  STATION","status":"Existing","subdivisio":"Kingston","line":"Lakeshore East","longitude":-79.130699,"latitude":43.779701,"mileage":317.3}},{"type":"Feature","geometry":{"type":"Point","coordinates":[-79.365468,43.766554]},"properties":{"cartodb_id":10,"objectid_1":11,"countofdoc":0,"fac_id":"ORGO","opendate":"May 1978","globalid":"{900479AB-EC56-4734-822D-12F5B050A6F1}","name_short":"ORIOLE","name_long":"ORIOLE  STATION","status":"Existing","subdivisio":"Bala","line":"Richmond Hill","longitude":-79.365501,"latitude":43.766602,"mileage":12.2}},{"type":"Feature","geometry":{"type":"Point","coordinates":[-79.371355,43.792609]},"properties":{"cartodb_id":11,"objectid_1":12,"countofdoc":0,"fac_id":"CMGO","opendate":"May 1978","globalid":"{7EC06A0A-D0A7-44A0-869A-B2D1B2E97D34}","name_short":"OLD CUMMER","name_long":"OLD CUMMER  STATION","status":"Existing","subdivisio":"Bala","line":"Richmond Hill","longitude":-79.371399,"latitude":43.792599,"mileage":14.1}},{"type":"Feature","geometry":{"type":"Point","coordinates":[-79.422444,43.837347]},"properties":{"cartodb_id":12,"objectid_1":13,"countofdoc":0,"fac_id":"LNGO","opendate":"May 1978","globalid":"{F9A2D186-E365-4C12-96AF-7CCF11935059}","name_short":"LANGSTAFF","name_long":"LANGSTAFF  STATION","status":"Existing","subdivisio":"Bala","line":"Richmond Hill","longitude":-79.422401,"latitude":43.837299,"mileage":18.3}},{"type":"Feature","geometry":{"type":"Point","coordinates":[-79.426528,43.874676]},"properties":{"cartodb_id":13,"objectid_1":14,"countofdoc":0,"fac_id":"RHGO","opendate":"May 1978","globalid":"{37C37017-C171-4D5F-AE3D-67F9BE4F410B}","name_short":"RICHMOND HILL","name_long":"RICHMOND HILL  STATION","status":"Existing","subdivisio":"Bala","line":"Richmond Hill","longitude":-79.426498,"latitude":43.874699,"mileage":21}},{"type":"Feature","geometry":{"type":"Point","coordinates":[-79.233035,43.996951]},"properties":{"cartodb_id":14,"objectid_1":15,"countofdoc":0,"fac_id":"LCGO","opendate":"September 2008","globalid":"{167ECB2E-859B-420D-98B6-A387023B9072}","name_short":"LINCOLNVILLE","name_long":"LINCOLNVILLE  STATION","status":"Existing","subdivisio":"Uxbridge","line":"Stouffville","longitude":-79.233002,"latitude":43.997002,"mileage":38.9}},{"type":"Feature","geometry":{"type":"Point","coordinates":[-79.25006,43.972238]},"properties":{"cartodb_id":15,"objectid_1":16,"countofdoc":0,"fac_id":"SVGO","opendate":"September 1982","globalid":"{DEAB7DAC-E5D8-4232-897E-B03CAF8952C5}","name_short":"STOUFFVILLE","name_long":"STOUFFVILLE  STATION","status":"Existing","subdivisio":"Uxbridge","line":"Stouffville","longitude":-79.25,"latitude":43.972698,"mileage":40.6}},{"type":"Feature","geometry":{"type":"Point","coordinates":[-79.263111,43.899338]},"properties":{"cartodb_id":16,"objectid_1":17,"countofdoc":0,"fac_id":"MJGO","opendate":"December 2002","globalid":"{5DF91DDE-44E8-49BB-B8EB-524F471640A4}","name_short":"MOUNT JOY","name_long":"MOUNT JOY  STATION","status":"Existing","subdivisio":"Uxbridge","line":"Stouffville","longitude":-79.2631,"latitude":43.899399,"mileage":45.8}},{"type":"Feature","geometry":{"type":"Point","coordinates":[-79.262794,43.882341]},"properties":{"cartodb_id":17,"objectid_1":18,"countofdoc":0,"fac_id":"MKGO","opendate":"September 1982","globalid":"{AA95E3E3-4D7E-4370-9FF3-6BC7E05BD350}","name_short":"MARKHAM","name_long":"MARKHAM  STATION","status":"Existing","subdivisio":"Uxbridge","line":"Stouffville","longitude":-79.262802,"latitude":43.882301,"mileage":47}},{"type":"Feature","geometry":{"type":"Point","coordinates":[-79.288578,43.873918]},"properties":{"cartodb_id":18,"objectid_1":19,"countofdoc":0,"fac_id":"CEGO","opendate":"September 2002","globalid":"{ECBFA865-C92B-4E1F-A2D7-0944AFB4054D}","name_short":"CENTENNIAL","name_long":"CENTENNIAL  STATION","status":"Existing","subdivisio":"Uxbridge","line":"Stouffville","longitude":-79.288597,"latitude":43.873901,"mileage":48.5}},{"type":"Feature","geometry":{"type":"Point","coordinates":[-79.314836,43.850911]},"properties":{"cartodb_id":19,"objectid_1":20,"countofdoc":0,"fac_id":"UVGO","opendate":"1991","globalid":"{50918DD2-38B3-4EC1-B195-54F33DFDA814}","name_short":"UNIONVILLE","name_long":"UNIONVILLE  STATION","status":"Existing","subdivisio":"Uxbridge","line":"Stouffville","longitude":-79.314796,"latitude":43.850899,"mileage":50.8}},{"type":"Feature","geometry":{"type":"Point","coordinates":[-79.301456,43.82304]},"properties":{"cartodb_id":20,"objectid_1":21,"countofdoc":0,"fac_id":"MIGO","opendate":"September 1982","globalid":"{BF6F7B92-24BE-4F71-A722-42350C83CF85}","name_short":"MILLIKEN","name_long":"MILLIKEN  STATION","status":"Existing","subdivisio":"Uxbridge","line":"Stouffville","longitude":-79.301498,"latitude":43.823002,"mileage":52.9}},{"type":"Feature","geometry":{"type":"Point","coordinates":[-79.284368,43.786389]},"properties":{"cartodb_id":21,"objectid_1":22,"countofdoc":0,"fac_id":"AGGO","opendate":"September 1982","globalid":"{583FCCAB-03BF-426B-944E-1CD8CD439051}","name_short":"AGINCOURT","name_long":"AGINCOURT  STATION","status":"Existing","subdivisio":"Uxbridge","line":"Stouffville","longitude":-79.284599,"latitude":43.7869,"mileage":55.5}},{"type":"Feature","geometry":{"type":"Point","coordinates":[-79.262562,43.732624]},"properties":{"cartodb_id":22,"objectid_1":23,"countofdoc":0,"fac_id":"KDGO","opendate":"February 2005","globalid":"{0510C446-9E90-4E44-94E8-41E8EE883AED}","name_short":"KENNEDY","name_long":"KENNEDY  STATION","status":"Existing","subdivisio":"Uxbridge","line":"Stouffville","longitude":-79.262604,"latitude":43.732601,"mileage":59.5}},{"type":"Feature","geometry":{"type":"Point","coordinates":[-80.245795,43.545127]},"properties":{"cartodb_id":23,"objectid_1":25,"countofdoc":0,"fac_id":"GUEP","opendate":"December 2011","globalid":"{21E19012-1B34-44DE-A29E-1843FF59F3AE}","name_short":"GUELPH","name_long":"GUELPH  STATION","status":"Existing","subdivisio":"Guelph","line":"Kitchener","longitude":-80.245796,"latitude":43.545101,"mileage":48.77}},{"type":"Feature","geometry":{"type":"Point","coordinates":[-80.493225,43.45575]},"properties":{"cartodb_id":24,"objectid_1":26,"countofdoc":0,"fac_id":"KITCH","opendate":"December 2011","globalid":"{F9331CE1-0B61-452F-B066-3705820CE092}","name_short":"KITCHENER","name_long":"KITCHENER  STATION","status":"Existing","subdivisio":"Guelph","line":"Kitchener","longitude":-80.493202,"latitude":43.4557,"mileage":62.7}},{"type":"Feature","geometry":{"type":"Point","coordinates":[-80.034181,43.633903]},"properties":{"cartodb_id":25,"objectid_1":27,"countofdoc":0,"fac_id":"ATGO","opendate":"January 2013","globalid":"{6B460097-A55E-47E7-8153-13DE390CA4DE}","name_short":"ACTON","name_long":"ACTON  STATION","status":"Existing","subdivisio":"Guelph","line":"Kitchener","longitude":-80.034203,"latitude":43.6339,"mileage":35.6}},{"type":"Feature","geometry":{"type":"Point","coordinates":[-79.691348,43.701608]},"properties":{"cartodb_id":26,"objectid_1":28,"countofdoc":0,"fac_id":"BLGO","opendate":"April 1974","globalid":"{CF581544-DA9D-42CF-AE6A-83AA2B7D93A3}","name_short":"BRAMALEA","name_long":"BRAMALEA  STATION","status":"Existing","subdivisio":"Halton","line":"Kitchener","longitude":-78.887001,"latitude":43.870201,"mileage":11.6}},{"type":"Feature","geometry":{"type":"Point","coordinates":[-79.763819,43.68698]},"properties":{"cartodb_id":27,"objectid_1":29,"countofdoc":0,"fac_id":"BRGO","opendate":"April 1974","globalid":"{344BA254-FA9D-416F-8753-5AB335FCD678}","name_short":"BRAMPTON","name_long":"BRAMPTON  STATION","status":"Existing","subdivisio":"Halton","line":"Kitchener","longitude":-79.763901,"latitude":43.687,"mileage":15.4}},{"type":"Feature","geometry":{"type":"Point","coordinates":[-79.822432,43.675139]},"properties":{"cartodb_id":28,"objectid_1":30,"countofdoc":0,"fac_id":"MPGO","opendate":"February 2005","globalid":"{DC913F30-7C82-40DD-89AF-DE5B4F5F8C7A}","name_short":"MOUNT PLEASANT","name_long":"MOUNT PLEASANT  STATION","status":"Existing","subdivisio":"Halton","line":"Kitchener","longitude":-79.422401,"latitude":43.837299,"mileage":18.3}},{"type":"Feature","geometry":{"type":"Point","coordinates":[-79.918219,43.655684]},"properties":{"cartodb_id":29,"objectid_1":31,"countofdoc":0,"fac_id":"GEGO","opendate":"April 1974","globalid":"{3B0B94E4-1FB3-43E0-AE28-34F64FE9E114}","name_short":"GEORGETOWN","name_long":"GEORGETOWN  STATION","status":"Existing","subdivisio":"Halton","line":"Kitchener","longitude":-79.918198,"latitude":43.655701,"mileage":23.5}},{"type":"Feature","geometry":{"type":"Point","coordinates":[-79.483386,43.778857]},"properties":{"cartodb_id":30,"objectid_1":32,"countofdoc":0,"fac_id":"YKGO","opendate":"September 2002","globalid":"{6D44EFA4-C6B4-43D8-B720-FECE297A82CD}","name_short":"YORK UNIVERSITY","name_long":"YORK UNIVERSITY  STATION","status":"Existing","subdivisio":"Newmarket","line":"Barrie","longitude":-79.483398,"latitude":43.778801,"mileage":12.6}},{"type":"Feature","geometry":{"type":"Point","coordinates":[-79.498107,43.837494]},"properties":{"cartodb_id":31,"objectid_1":33,"countofdoc":0,"fac_id":"RUGO","opendate":"January 2001","globalid":"{B5654B47-C343-46DB-92F4-9FA54D916D3F}","name_short":"RUTHERFORD","name_long":"RUTHERFORD  STATION","status":"Existing","subdivisio":"Newmarket","line":"Barrie","longitude":-79.498001,"latitude":43.837101,"mileage":16.7}},{"type":"Feature","geometry":{"type":"Point","coordinates":[-79.507191,43.859567]},"properties":{"cartodb_id":32,"objectid_1":34,"countofdoc":0,"fac_id":"MAGO","opendate":"September 1982","globalid":"{B1A54ED3-92DE-4D15-87DD-1B023D781451}","name_short":"MAPLE","name_long":"MAPLE  STATION","status":"Existing","subdivisio":"Newmarket","line":"Barrie","longitude":-79.422401,"latitude":43.837299,"mileage":18.3}},{"type":"Feature","geometry":{"type":"Point","coordinates":[-79.526741,43.919143]},"properties":{"cartodb_id":33,"objectid_1":35,"countofdoc":0,"fac_id":"KGGO","opendate":"September 1982","globalid":"{AE7F064A-2531-421F-AC2B-8E21A39E3DC1}","name_short":"KING CITY","name_long":"KING CITY  STATION","status":"Existing","subdivisio":"Newmarket","line":"Barrie","longitude":-79.526604,"latitude":43.9188,"mileage":22.7}},{"type":"Feature","geometry":{"type":"Point","coordinates":[-79.459553,43.999805]},"properties":{"cartodb_id":34,"objectid_1":36,"countofdoc":0,"fac_id":"AUGO","opendate":"September 1982","globalid":"{A26700AD-C6D0-4E29-8128-8BEA45D04B8D}","name_short":"AURORA","name_long":"AURORA  STATION","status":"Existing","subdivisio":"Newmarket","line":"Barrie","longitude":-79.459396,"latitude":43.9995,"mileage":29.9}},{"type":"Feature","geometry":{"type":"Point","coordinates":[-79.460475,44.06075]},"properties":{"cartodb_id":35,"objectid_1":37,"countofdoc":0,"fac_id":"NMGO","opendate":"September 1982","globalid":"{5B4B0A8C-05D8-4CBE-8836-FD297096A52C}","name_short":"NEWMARKET","name_long":"NEWMARKET  STATION","status":"Existing","subdivisio":"Newmarket","line":"Barrie","longitude":-79.460503,"latitude":44.060699,"mileage":34.2}},{"type":"Feature","geometry":{"type":"Point","coordinates":[-79.455185,44.077219]},"properties":{"cartodb_id":36,"objectid_1":38,"countofdoc":0,"fac_id":"GWIL","opendate":"November 2004","globalid":"{2D1E60D6-F4FA-48FC-80F9-D7B82E7BA9A9}","name_short":"EAST GWILLIMBURY","name_long":"EAST GWILLIMBURY  STATION","status":"Existing","subdivisio":"Newmarket","line":"Barrie","longitude":-79.4552,"latitude":44.077202,"mileage":35.5}},{"type":"Feature","geometry":{"type":"Point","coordinates":[-79.556015,44.117173]},"properties":{"cartodb_id":37,"objectid_1":39,"countofdoc":0,"fac_id":"BDGO","opendate":"September 1982","globalid":"{8A08EAA1-9AB3-47F5-AC98-B2E24B05F777}","name_short":"BRADFORD","name_long":"BRADFORD  STATION","status":"Existing","subdivisio":"Newmarket","line":"Barrie","longitude":-79.556198,"latitude":44.117298,"mileage":41.5}},{"type":"Feature","geometry":{"type":"Point","coordinates":[-79.627174,44.35117]},"properties":{"cartodb_id":38,"objectid_1":40,"countofdoc":0,"fac_id":"BSGO","opendate":"December 2007","globalid":"{AC35ABCC-CAF6-4A8B-9562-5116F86051A8}","name_short":"BARRIE SOUTH","name_long":"BARRIE SOUTH  STATION","status":"Existing","subdivisio":"Newmarket","line":"Barrie","longitude":-79.262604,"latitude":43.732601,"mileage":59.5}},{"type":"Feature","geometry":{"type":"Point","coordinates":[-79.686864,44.373368]},"properties":{"cartodb_id":39,"objectid_1":41,"countofdoc":0,"fac_id":"ADGO","opendate":"January 2012","globalid":"{93DEF11F-459D-407B-8BED-93C1DB898457}","name_short":"ALLANDALE WATERFRONT","name_long":"ALLANDALE WATERFRONT  STATION","status":"Existing","subdivisio":"Newmarket","line":"Barrie","longitude":-79.686897,"latitude":44.373402,"mileage":62.9}},{"type":"Feature","geometry":{"type":"Point","coordinates":[-79.511066,43.699153]},"properties":{"cartodb_id":40,"objectid_1":42,"countofdoc":0,"fac_id":"WSGO","opendate":"April 1974","globalid":"{2AB0D21B-ED1E-4C0E-B4CD-91EC6C88C4E6}","name_short":"WESTON","name_long":"WESTON  STATION","status":"Existing","subdivisio":"Weston","line":"Kitchener","longitude":-79.511101,"latitude":43.6992,"mileage":8.4}},{"type":"Feature","geometry":{"type":"Point","coordinates":[-79.561858,43.706369]},"properties":{"cartodb_id":41,"objectid_1":43,"countofdoc":0,"fac_id":"ETGO","opendate":"December 1974","globalid":"{E2FC289E-0B07-4F58-A6C7-19BB46E56E52}","name_short":"ETOBICOKE NORTH","name_long":"ETOBICOKE NORTH  STATION","status":"Existing","subdivisio":"Weston","line":"Kitchener","longitude":-79.561897,"latitude":43.706402,"mileage":11}},{"type":"Feature","geometry":{"type":"Point","coordinates":[-79.638029,43.704875]},"properties":{"cartodb_id":42,"objectid_1":44,"countofdoc":0,"fac_id":"MTGO","opendate":"April 1974","globalid":"{4D57928E-5993-4266-88B9-44D6FBE0DB10}","name_short":"MALTON","name_long":"MALTON  STATION","status":"Existing","subdivisio":"Weston","line":"Kitchener","longitude":-79.6381,"latitude":43.704899,"mileage":14.7}},{"type":"Feature","geometry":{"type":"Point","coordinates":[-79.451928,43.65902]},"properties":{"cartodb_id":43,"objectid_1":45,"countofdoc":0,"fac_id":"BOGO","opendate":"April 1974","globalid":"{60C69F3C-C5E9-4784-B41A-A4232326EA2E}","name_short":"BLOOR","name_long":"BLOOR  STATION","status":"Existing","subdivisio":"Weston","line":"Kitchener","longitude":-79.451897,"latitude":43.659,"mileage":4}},{"type":"Feature","geometry":{"type":"Point","coordinates":[-79.53726,43.635689]},"properties":{"cartodb_id":44,"objectid_1":46,"countofdoc":0,"fac_id":"KPGO","opendate":"October 1981","globalid":"{231B6BFE-B6E1-44EA-A88A-B886E36CBB01}","name_short":"KIPLING","name_long":"KIPLING  STATION","status":"Existing","subdivisio":"Galt","line":"Milton","longitude":-79.537399,"latitude":43.635799,"mileage":9.7}},{"type":"Feature","geometry":{"type":"Point","coordinates":[-79.577005,43.608047]},"properties":{"cartodb_id":45,"objectid_1":47,"countofdoc":0,"fac_id":"DXGO","opendate":"October 1981","globalid":"{C1C5A48C-E58E-4C7D-AD2D-B445966BD833}","name_short":"DIXIE","name_long":"DIXIE  STATION","status":"Existing","subdivisio":"Galt","line":"Milton","longitude":-79.577004,"latitude":43.608101,"mileage":12.4}},{"type":"Feature","geometry":{"type":"Point","coordinates":[-79.623539,43.583452]},"properties":{"cartodb_id":46,"objectid_1":48,"countofdoc":0,"fac_id":"CKGO","opendate":"October 1981","globalid":"{4FB39BE5-30CE-424A-A071-DB4B6502A1C3}","name_short":"COOKSVILLE","name_long":"COOKSVILLE  STATION","status":"Existing","subdivisio":"Galt","line":"Milton","longitude":-79.763901,"latitude":43.687,"mileage":15.4}},{"type":"Feature","geometry":{"type":"Point","coordinates":[-79.66857,43.566885]},"properties":{"cartodb_id":47,"objectid_1":49,"countofdoc":0,"fac_id":"ERGO","opendate":"October 1981","globalid":"{EEF891AC-F9B4-4F4C-A82E-20466CBD956F}","name_short":"ERINDALE","name_long":"ERINDALE  STATION","status":"Existing","subdivisio":"Galt","line":"Milton","longitude":-79.668503,"latitude":43.567001,"mileage":18.1}},{"type":"Feature","geometry":{"type":"Point","coordinates":[-79.70907,43.576125]},"properties":{"cartodb_id":48,"objectid_1":50,"countofdoc":0,"fac_id":"STGO","opendate":"October 1981","globalid":"{B823F175-4CCC-453A-BF78-FC1DEFCC340B}","name_short":"STREETSVILLE","name_long":"STREETSVILLE  STATION","status":"Existing","subdivisio":"Galt","line":"Milton","longitude":-79.709,"latitude":43.576199,"mileage":20.3}},{"type":"Feature","geometry":{"type":"Point","coordinates":[-79.75345,43.597613]},"properties":{"cartodb_id":49,"objectid_1":51,"countofdoc":0,"fac_id":"MDGO","opendate":"October 1981","globalid":"{2DC01A73-AEF8-40F7-8BC6-BDC9FF1A2EE7}","name_short":"MEADOWVALE","name_long":"MEADOWVALE  STATION","status":"Existing","subdivisio":"Galt","line":"Milton","longitude":-79.753403,"latitude":43.597698,"mileage":23.1}},{"type":"Feature","geometry":{"type":"Point","coordinates":[-79.788933,43.589999]},"properties":{"cartodb_id":50,"objectid_1":52,"countofdoc":0,"fac_id":"LGGO","opendate":"September 2007","globalid":"{066ACCE1-3956-4787-B904-B44953B843EC}","name_short":"LISGAR","name_long":"LISGAR  STATION","status":"Existing","subdivisio":"Galt","line":"Milton","longitude":-79.789001,"latitude":43.59,"mileage":25.2}},{"type":"Feature","geometry":{"type":"Point","coordinates":[-79.866176,43.523685]},"properties":{"cartodb_id":51,"objectid_1":53,"countofdoc":0,"fac_id":"MNGO","opendate":"October 1981","globalid":"{0EB561BE-C98D-4824-A669-21DE228C5E42}","name_short":"MILTON","name_long":"MILTON  STATION","status":"Existing","subdivisio":"Galt","line":"Milton","longitude":-79.866203,"latitude":43.5238,"mileage":31.2}},{"type":"Feature","geometry":{"type":"Point","coordinates":[-79.868724,43.252964]},"properties":{"cartodb_id":52,"objectid_1":54,"countofdoc":0,"fac_id":"HMGO","opendate":"April 1996","globalid":"{E724A69F-303B-4600-86EB-B6501842B8C7}","name_short":"HAMILTON","name_long":"HAMILTON  STATION","status":"Existing","subdivisio":"Hamilton","line":"Lakeshore West","longitude":-79.868698,"latitude":43.252998,"mileage":57.5}},{"type":"Feature","geometry":{"type":"Point","coordinates":[-79.419032,43.636016]},"properties":{"cartodb_id":54,"objectid_1":56,"countofdoc":0,"fac_id":"EXGO","opendate":"July 1968","globalid":"{048D0773-A726-4529-8B6E-7C68DB6318B8}","name_short":"EXHIBITION","name_long":"EXHIBITION  STATION","status":"Existing","subdivisio":"Oakville","line":"Lakeshore West","longitude":-79.418999,"latitude":43.636101,"mileage":2}},{"type":"Feature","geometry":{"type":"Point","coordinates":[-79.496814,43.616674]},"properties":{"cartodb_id":55,"objectid_1":57,"countofdoc":0,"fac_id":"MMGO","opendate":"May 1967","globalid":"{4F11CEB6-CD3C-4715-BEE2-A6EAD9D97DEC}","name_short":"MIMICO","name_long":"MIMICO  STATION","status":"Existing","subdivisio":"Oakville","line":"Lakeshore West","longitude":-79.496803,"latitude":43.616699,"mileage":6.7}},{"type":"Feature","geometry":{"type":"Point","coordinates":[-79.544961,43.592189]},"properties":{"cartodb_id":56,"objectid_1":58,"countofdoc":0,"fac_id":"LBGO","opendate":"May 1967","globalid":"{7D8EEA88-27C7-4C09-A654-C180A21E5DED}","name_short":"LONG BRANCH","name_long":"LONG BRANCH  STATION","status":"Existing","subdivisio":"Oakville","line":"Lakeshore West","longitude":-79.544998,"latitude":43.592201,"mileage":9.6}},{"type":"Feature","geometry":{"type":"Point","coordinates":[-79.587153,43.556012]},"properties":{"cartodb_id":57,"objectid_1":59,"countofdoc":0,"fac_id":"PCGO","opendate":"May 1967","globalid":"{3F829F9D-AC4B-4106-BA7E-CB4AE61B609C}","name_short":"PORT CREDIT","name_long":"PORT CREDIT  STATION","status":"Existing","subdivisio":"Oakville","line":"Lakeshore West","longitude":-79.587303,"latitude":43.556099,"mileage":12.8}},{"type":"Feature","geometry":{"type":"Point","coordinates":[-79.634622,43.512355]},"properties":{"cartodb_id":58,"objectid_1":60,"countofdoc":0,"fac_id":"CLGO","opendate":"May 1967","globalid":"{7D323127-D920-4BF0-BD5F-526A02C5C651}","name_short":"CLARKSON","name_long":"CLARKSON  STATION","status":"Existing","subdivisio":"Oakville","line":"Lakeshore West","longitude":-79.498001,"latitude":43.837101,"mileage":16.7}},{"type":"Feature","geometry":{"type":"Point","coordinates":[-79.682469,43.454892]},"properties":{"cartodb_id":59,"objectid_1":61,"countofdoc":0,"fac_id":"OKGO","opendate":"May 1967","globalid":"{A2DB9933-8634-49AF-9B3B-1B3F738C65E7}","name_short":"OAKVILLE","name_long":"OAKVILLE  STATION","status":"Existing","subdivisio":"Oakville","line":"Lakeshore West","longitude":-79.682297,"latitude":43.455101,"mileage":21.4}},{"type":"Feature","geometry":{"type":"Point","coordinates":[-79.722583,43.41642]},"properties":{"cartodb_id":60,"objectid_1":62,"countofdoc":0,"fac_id":"BTGO","opendate":"May 1967","globalid":"{8523BFBB-170D-4B95-9F65-E25863F79D72}","name_short":"BRONTE","name_long":"BRONTE  STATION","status":"Existing","subdivisio":"Oakville","line":"Lakeshore West","longitude":-79.722702,"latitude":43.4165,"mileage":24.7}},{"type":"Feature","geometry":{"type":"Point","coordinates":[-79.760875,43.379646]},"properties":{"cartodb_id":61,"objectid_1":63,"countofdoc":0,"fac_id":"APGO","opendate":"September 1988","globalid":"{DF16C010-72E1-4DF2-9E2B-9CF9674D17F8}","name_short":"APPLEBY","name_long":"APPLEBY  STATION","status":"Existing","subdivisio":"Oakville","line":"Lakeshore West","longitude":-79.761002,"latitude":43.3797,"mileage":27.9}},{"type":"Feature","geometry":{"type":"Point","coordinates":[-79.809058,43.341174]},"properties":{"cartodb_id":62,"objectid_1":64,"countofdoc":0,"fac_id":"BUGO","opendate":"May 1967","globalid":"{A4C5AC67-B034-4728-87AF-AF18F43ED584}","name_short":"BURLINGTON","name_long":"BURLINGTON  STATION","status":"Existing","subdivisio":"Oakville","line":"Lakeshore West","longitude":-79.809097,"latitude":43.341202,"mileage":31.5}},{"type":"Feature","geometry":{"type":"Point","coordinates":[-79.854454,43.313237]},"properties":{"cartodb_id":63,"objectid_1":65,"countofdoc":0,"fac_id":"ALGO","opendate":"May 1992","globalid":"{A5943188-83E0-4156-A4EB-D0CF5229F5DC}","name_short":"ALDERSHOT","name_long":"ALDERSHOT  STATION","status":"Existing","subdivisio":"Oakville","line":"Lakeshore West","longitude":-79.8545,"latitude":43.313301,"mileage":34.6}},{"type":"Feature","geometry":{"type":"Point","coordinates":[-79.063065,43.108997]},"properties":{"cartodb_id":64,"objectid_1":66,"countofdoc":0,"fac_id":"NFGO","opendate":null,"globalid":"{2C7CC045-F996-4513-8D74-1DAC0977CF9C}","name_short":"NIAGARA FALLS","name_long":"NIAGARA FALLS  STATION","status":"Existing","subdivisio":"Grimsby","line":"Niagara Falls","longitude":-79.063103,"latitude":43.109001,"mileage":0.6}},{"type":"Feature","geometry":{"type":"Point","coordinates":[-79.255818,43.147537]},"properties":{"cartodb_id":65,"objectid_1":67,"countofdoc":0,"fac_id":"CAGO","opendate":null,"globalid":"{924F1A77-2AF2-42B1-8EA5-C87B5A3FFE94}","name_short":"ST. CATHARINES","name_long":"ST. CATHARINES  STATION","status":"Existing","subdivisio":"Grimsby","line":"Niagara Falls","longitude":-79.255798,"latitude":43.147499,"mileage":11.8}},{"type":"Feature","geometry":{"type":"Point","coordinates":[-79.866056,43.266794]},"properties":{"cartodb_id":66,"objectid_1":0,"countofdoc":0,"fac_id":"WHBR","opendate":"July 2015","globalid":null,"name_short":"WEST HARBOUR","name_long":"WEST HARBOUR STATION","status":"Existing","subdivisio":"Oakville","line":"Lakeshore West","longitude":-79.866052,"latitude":43.266786,"mileage":39.1}},{"type":"Feature","geometry":{"type":"Point","coordinates":[-79.759281,43.241847]},"properties":{"cartodb_id":67,"objectid_1":0,"countofdoc":0,"fac_id":null,"opendate":null,"globalid":null,"name_short":"CONFEDERATION","name_long":"CONFEDERATION STATION","status":"Planned","subdivisio":"Grimsby","line":"Niagara Falls","longitude":-79.7590124461,"latitude":43.2415905699,"mileage":38.1}},{"type":"Feature","geometry":{"type":"Point","coordinates":[-79.487151,43.687822]},"properties":{"cartodb_id":68,"objectid_1":0,"countofdoc":0,"fac_id":null,"opendate":null,"globalid":null,"name_short":"MOUNT DENNIS","name_long":"MOUNT DENNIS STATION","status":"Planned","subdivisio":"Weston","line":"Kitchener","longitude":-79.4871819999,"latitude":43.6873542998,"mileage":6.82}},{"type":"Feature","geometry":{"type":"Point","coordinates":[-79.464687,43.692384]},"properties":{"cartodb_id":69,"objectid_1":0,"countofdoc":0,"fac_id":null,"opendate":null,"globalid":null,"name_short":"CALEDONIA","name_long":"CALEDONIA STATION","status":"Planned","subdivisio":"Newmarket","line":"Barrie","longitude":-79.4651910001,"latitude":43.6932357002,"mileage":6.5}},{"type":"Feature","geometry":{"type":"Point","coordinates":[-79.396553,43.975636]},"properties":{"cartodb_id":70,"objectid_1":0,"countofdoc":0,"fac_id":null,"opendate":null,"globalid":null,"name_short":"BLOOMINGTON","name_long":"BLOOMINGTON STATION","status":"Planned","subdivisio":"Bala","line":"Richmond Hill","longitude":-79.3974517982,"latitude":43.9766201061,"mileage":28.8}},{"type":"Feature","geometry":{"type":"Point","coordinates":[-79.478284,43.753678]},"properties":{"cartodb_id":72,"objectid_1":0,"countofdoc":0,"fac_id":null,"opendate":null,"globalid":null,"name_short":"DOWNSVIEW PARK","name_long":"DOWNSVIEW PARK STATION","status":"Planned","subdivisio":"Newmarket","line":"Barrie","longitude":-79.4782718223,"latitude":43.7532954497,"mileage":10.8}},{"type":"Feature","geometry":{"type":"Point","coordinates":[-78.855591,43.887632]},"properties":{"cartodb_id":73,"objectid_1":0,"countofdoc":0,"fac_id":null,"opendate":null,"globalid":null,"name_short":"OSHAWA CENTRAL","name_long":"OSHAWA CENTRAL STATION","status":"Planned","subdivisio":"GO","line":"Lakeshore East","longitude":-78.8555873499,"latitude":43.8876238343,"mileage":0}},{"type":"Feature","geometry":{"type":"Point","coordinates":[-79.61282,43.68255]},"properties":{"cartodb_id":74,"objectid_1":0,"countofdoc":0,"fac_id":"AIRP","opendate":"July 2015","globalid":null,"name_short":"TERMINAL 1","name_long":"TERMINAL 1 STATION","status":"Existing","subdivisio":"Pearson","line":null,"longitude":0,"latitude":0,"mileage":0}},{"type":"Feature","geometry":{"type":"Point","coordinates":[-79.397395,43.940206]},"properties":{"cartodb_id":71,"objectid_1":0,"countofdoc":0,"fac_id":null,"opendate":null,"globalid":null,"name_short":"GORMLEY","name_long":"GORMLEY STATION","status":"Planned","subdivisio":"Bala","line":"Richmond Hill","longitude":-79.3981651822,"latitude":43.9394757921,"mileage":26.15}},{"type":"Feature","geometry":{"type":"Point","coordinates":[-79.380431,43.644362]},"properties":{"cartodb_id":53,"objectid_1":55,"countofdoc":0,"fac_id":"USTN","opendate":"May 1967","globalid":"{614C3DD6-D394-4308-B1C9-15013D28BC27}","name_short":"UNION STATION","name_long":"UNION  STATION","status":"Existing","subdivisio":"USRC","line":"ALL","longitude":-79.380501,"latitude":43.644501,"mileage":0}}]}